[
  {
    "district_name": "Alur Gajah",
    "city": "Alur Gajah",
    "state_name": "Melaka",
    "avg_temperature": 33.434895218270704,
    "min_temperature": 28.411613690000024,
    "max_temperature": 39.96623030000001,
    "avg_ndvi": 0.7401227548120302,
    "avg_ndbi": -0.30478513169924815,
    "avg_elevation": 44.18796992481203,
    "avg_population": 1.9425943969172936,
    "avg_latitude": 2.39226189449962,
    "avg_longitude": 102.20395626449022,
    "hotspot_count": 133,
    "data_points": 133
  },
  {
    "district_name": "Batu Pahit",
    "city": "Batu Pahit",
    "state_name": "Johor",
    "avg_temperature": 31.596545351982776,
    "min_temperature": 25.815627500000005,
    "max_temperature": 54.94228493000003,
    "avg_ndvi": 0.733797752112069,
    "avg_ndbi": -0.31663555387068953,
    "avg_elevation": 14.456896551724139,
    "avg_population": 2.4119560663793096,
    "avg_latitude": 1.8324795433532333,
    "avg_longitude": 103.08002471353679,
    "hotspot_count": 116,
    "data_points": 116
  },
  {
    "district_name": "Bentung",
    "city": "Bentung",
    "state_name": "Pahang",
    "avg_temperature": 28.38004727000002,
    "min_temperature": 17.277413540000026,
    "max_temperature": 38.19569594000001,
    "avg_ndvi": 0.7647547218885449,
    "avg_ndbi": -0.34034804378018574,
    "avg_elevation": 327.6346749226006,
    "avg_population": 0.5209047645572755,
    "avg_latitude": 3.3753191410774894,
    "avg_longitude": 102.03177008323856,
    "hotspot_count": 323,
    "data_points": 323
  },
  {
    "district_name": "Kelang",
    "city": "Kelang",
    "state_name": "Selangor",
    "avg_temperature": 38.15977478588787,
    "min_temperature": 30.98025572000003,
    "max_temperature": 49.37262134000002,
    "avg_ndvi": 0.575772570186916,
    "avg_ndbi": -0.24128777239065416,
    "avg_elevation": 5.252336448598131,
    "avg_population": 16.208064191588786,
    "avg_latitude": 3.0457383905807354,
    "avg_longitude": 101.38862193786755,
    "hotspot_count": 107,
    "data_points": 107
  },
  {
    "district_name": "Labuk & Sugut",
    "city": "Labuk & Sugut",
    "state_name": "Sabah",
    "avg_temperature": 31.979871428552062,
    "min_temperature": 22.982088919999995,
    "max_temperature": 40.78484609000003,
    "avg_ndvi": 0.8271338701993197,
    "avg_ndbi": -0.4058163108340136,
    "avg_elevation": 130.96326530612245,
    "avg_population": 0.15030077079931975,
    "avg_latitude": 6.08219854468532,
    "avg_longitude": 117.29019988761534,
    "hotspot_count": 1470,
    "data_points": 1470
  },
  {
    "district_name": "Pensiangan",
    "city": "Pensiangan",
    "state_name": "Sabah",
    "avg_temperature": 25.870439549230788,
    "min_temperature": 14.09181890000002,
    "max_temperature": 32.53887284000001,
    "avg_ndvi": 0.79890893239819,
    "avg_ndbi": -0.3999220358031675,
    "avg_elevation": 581.9739819004525,
    "avg_population": 0.06090036067375566,
    "avg_latitude": 4.605632890442362,
    "avg_longitude": 116.52763895781774,
    "hotspot_count": 884,
    "data_points": 884
  },
  {
    "district_name": "Temerluh",
    "city": "Temerluh",
    "state_name": "Pahang",
    "avg_temperature": 31.32887688088891,
    "min_temperature": 17.10651254000004,
    "max_temperature": 37.659066800000005,
    "avg_ndvi": 0.7971140128864197,
    "avg_ndbi": -0.34832238794320985,
    "avg_elevation": 105.8641975308642,
    "avg_population": 0.518282729762963,
    "avg_latitude": 3.42693972517018,
    "avg_longitude": 102.38449103736012,
    "hotspot_count": 810,
    "data_points": 810
  }
]